[{"address1":"207 West 96th Street","latLong":{"lat":40.7944661,"lng":-73.97063899999999},"formattedAddress":"207 W 96th St, New York, NY 10025, USA"},{"address1":"120 West 69th Street Basement","latLong":{"lat":40.775709,"lng":-73.98106609999999},"formattedAddress":"120 W 69th St, New York, NY 10023, USA"},{"address1":"422 West 57th Street","latLong":{"lat":40.7681523,"lng":-73.986936},"formattedAddress":"422 W 57th St, New York, NY 10019, USA"},{"address1":"164 West 74th Street 1st floor 10023","latLong":{"lat":40.7795102,"lng":-73.98025559999999},"formattedAddress":"164 W 74th St, New York, NY 10023, USA"},{"address1":"207 West 96th Street","latLong":{"lat":40.7944661,"lng":-73.97063899999999},"formattedAddress":"207 W 96th St, New York, NY 10025, USA"},{"address1":"144 West 90th Street Basement","latLong":{"lat":40.7897647,"lng":-73.9724231},"formattedAddress":"144 W 90th St, New York, NY 10024, USA"},{"address1":"141 West 73rd Street","latLong":{"lat":40.7789434,"lng":-73.9797758},"formattedAddress":"141 W 73rd St, New York, NY 10023, USA"},{"address1":"4 West 76th Street. Meeting in the gym.","latLong":{"lat":40.781489,"lng":-73.97982},"formattedAddress":"344 Amsterdam Ave, New York, NY 10024, USA"},{"address1":"221 West 107th Street Basement","latLong":{"lat":40.8018547,"lng":-73.9663156},"formattedAddress":"221 W 107th St, New York, NY 10025, USA"},{"address1":"207 West 96th Street","latLong":{"lat":40.7944661,"lng":-73.97063899999999},"formattedAddress":"207 W 96th St, New York, NY 10025, USA"},{"address1":"215 West 82nd Street","latLong":{"lat":40.7856479,"lng":-73.9777625},"formattedAddress":"215 W 82nd St, New York, NY 10024, USA"},{"address1":"601 West 114th Street (2nd Red Door) NY 10025","latLong":{"lat":40.7564645,"lng":-73.98454869999999},"formattedAddress":"130 W 44th St, New York, NY 10036, USA"},{"address1":"160 Central Park West","latLong":{"lat":40.7787393,"lng":-73.97455099999999},"formattedAddress":"160 Central Park West, New York, NY 10023, USA"},{"address1":"5 West 63rd Street Downstairs in large meeting room.","latLong":{"lat":40.7711043,"lng":-73.9804932},"formattedAddress":"5 W 63rd St, New York, NY 10023, USA"},{"address1":"4 West 76th Street (In the gym)","latLong":{"lat":40.781489,"lng":-73.97982},"formattedAddress":"344 Amsterdam Ave, New York, NY 10024, USA"},{"address1":"160 Central Park West Gym basement.","latLong":{"lat":40.7945333,"lng":-73.9649319},"formattedAddress":"392 Central Park West, New York, NY 10025, USA"},{"address1":"152 West 66th Street","latLong":{"lat":40.774323,"lng":-73.9839099},"formattedAddress":"152 W 66th St, New York, NY 10023, USA"},{"address1":"3 West 95th Street Lower Level Auditorium","latLong":{"lat":40.793912,"lng":-73.9727599},"formattedAddress":"2537 Broadway, New York, NY 10025, USA"},{"address1":"251 West 80th Street 10024","latLong":{"lat":40.784931,"lng":-73.98004089999999},"formattedAddress":"251 W 80th St, New York, NY 10024, USA"},{"address1":"111 West 71st Street","latLong":{"lat":40.7770609,"lng":-73.97954659999999},"formattedAddress":"111 W 71st St, New York, NY 10023, USA"},{"address1":"5 West 63rd Street 1st Floor","latLong":{"lat":40.7709301,"lng":-73.9806641},"formattedAddress":"5 W 63rd St, New York, NY 10023, USA"},{"address1":"5 West 63rd Street","latLong":{"lat":40.7709301,"lng":-73.9806641},"formattedAddress":"5 W 63rd St, New York, NY 10023, USA"},{"address1":"207 West 96th Street","latLong":{"lat":40.7944661,"lng":-73.97063899999999},"formattedAddress":"207 W 96th St, New York, NY 10025, USA"},{"address1":"26 West 84th Street","latLong":{"lat":40.7843147,"lng":-73.97173169999999},"formattedAddress":"26 W 84th St, New York, NY 10024, USA"},{"address1":"200 West 97th Street Basement","latLong":{"lat":40.79474159999999,"lng":-73.96988329999999},"formattedAddress":"200 W 97th St, New York, NY 10025, USA"},{"address1":"218 West 108th Street","latLong":{"lat":40.8020319,"lng":-73.9659862},"formattedAddress":"218 W 108th St, New York, NY 10025, USA"},{"address1":"125 West 104th Street 1st Floor","latLong":{"lat":40.798687,"lng":-73.9649286},"formattedAddress":"125 W 104th St, New York, NY 10025, USA"},{"address1":"141 West 73rd Street","latLong":{"lat":40.7789434,"lng":-73.9797758},"formattedAddress":"141 W 73rd St, New York, NY 10023, USA"},{"address1":"236 West 73rd Street  5th Floor","latLong":{"lat":40.7795884,"lng":-73.98226950000002},"formattedAddress":"236 W 73rd St, New York, NY 10023, USA"},{"address1":"165 West 105th Street Basement","latLong":{"lat":40.79979790000001,"lng":-73.96564289999999},"formattedAddress":"165 W 105th St, New York, NY 10025, USA"},{"address1":"207 West 96th Street","latLong":{"lat":40.7944661,"lng":-73.97063899999999},"formattedAddress":"207 W 96th St, New York, NY 10025, USA"},{"address1":"207 West 96th Street","latLong":{"lat":40.7944661,"lng":-73.97063899999999},"formattedAddress":"207 W 96th St, New York, NY 10025, USA"},{"address1":"2504 Broadway  Basement","latLong":{"lat":40.7927122,"lng":-73.97267219999999},"formattedAddress":"Advent Lutheran Church, 2504 Broadway, New York, NY 10025, USA"},{"address1":"405 West 114th Street","latLong":{"lat":40.805083,"lng":-73.960405},"formattedAddress":"405 W 114th St, New York, NY 10025, USA"},{"address1":"368 West End Ave 1st floor","latLong":{"lat":40.7831667,"lng":-73.98154819999999},"formattedAddress":"368 West End Ave, New York, NY 10024, USA"},{"address1":"225 West 99th Street 1st Floor","latLong":{"lat":40.79635340000001,"lng":-73.9690816},"formattedAddress":"225 W 99th St, New York, NY 10025, USA"},{"address1":"251 West 100th Street","latLong":{"lat":40.7978378,"lng":-73.9708521},"formattedAddress":"251 W 100th St, New York, NY 10025, USA"},{"address1":"207 West 96th Street","latLong":{"lat":40.7944661,"lng":-73.97063899999999},"formattedAddress":"207 W 96th St, New York, NY 10025, USA"},{"address1":"26 West 84th Street","latLong":{"lat":40.7843147,"lng":-73.97173169999999},"formattedAddress":"26 W 84th St, New York, NY 10024, USA"},{"address1":"5 West 63rd Street Basement Room D","latLong":{"lat":40.7709301,"lng":-73.9806641},"formattedAddress":"5 W 63rd St, New York, NY 10023, USA"},{"address1":"552 West End Avenue Basement","latLong":{"lat":40.7892789,"lng":-73.97716009999999},"formattedAddress":"552 West End Ave, New York, NY 10024, USA"},{"address1":"164 West 74 Street","latLong":{"lat":40.7795102,"lng":-73.98025559999999},"formattedAddress":"164 W 74th St, New York, NY 10023, USA"},{"address1":"340 West 85th Street Basement","latLong":{"lat":40.7886377,"lng":-73.97993699999999},"formattedAddress":"340 W 85th St, New York, NY 10024, USA"},{"address1":"368 West End Avenue 1st Floor","latLong":{"lat":40.7831667,"lng":-73.98154819999999},"formattedAddress":"368 West End Ave, New York, NY 10024, USA"},{"address1":"152 West 71st Street","latLong":{"lat":40.77711,"lng":-73.981217},"formattedAddress":"152 W 71st St, New York, NY 10023, USA"},{"address1":"5 West 63rd Street","latLong":{"lat":40.7709301,"lng":-73.9806641},"formattedAddress":"5 W 63rd St, New York, NY 10023, USA"},{"address1":"207 West 96th Street","latLong":{"lat":40.7944661,"lng":-73.97063899999999},"formattedAddress":"207 W 96th St, New York, NY 10025, USA"},{"address1":"131 West 72nd Street 3rd Floor Room #2F","latLong":{"lat":40.7781299,"lng":-73.97975799999999},"formattedAddress":"131 W 72nd St, New York, NY 10023, USA"},{"address1":"152 West 71st Street","latLong":{"lat":40.77711,"lng":-73.981217},"formattedAddress":"152 W 71st St, New York, NY 10023, USA"},{"address1":"207 West 96th Street Basement Little Room 10025","latLong":{"lat":40.7195107,"lng":-73.7308719},"formattedAddress":"96th Ave, Queens, NY 11429, USA"},{"address1":"30 West 68th Street","latLong":{"lat":40.7739911,"lng":-73.97916920000002},"formattedAddress":"30 W 68th St, New York, NY 10023, USA"},{"address1":"26 West 84th Street","latLong":{"lat":40.7843147,"lng":-73.97173169999999},"formattedAddress":"26 W 84th St, New York, NY 10024, USA"},{"address1":"263 West 86th Street  1st Floor","latLong":{"lat":40.7889383,"lng":-73.97729029999999},"formattedAddress":"263 W 86th St, New York, NY 10024, USA"},{"address1":"306 West 102nd Street 2nd Floor","latLong":{"lat":40.7991395,"lng":-73.9711355},"formattedAddress":"306 W 102nd St, New York, NY 10025, USA"},{"address1":"152 West 71st Street NY 10023","latLong":{"lat":40.77711,"lng":-73.981217},"formattedAddress":"152 W 71st St, New York, NY 10023, USA"},{"address1":"306 West 102nd Street 2nd Floor","latLong":{"lat":40.7991395,"lng":-73.9711355},"formattedAddress":"306 W 102nd St, New York, NY 10025, USA"},{"address1":"595 Columbus Avenue","latLong":{"lat":40.7880097,"lng":-73.9707093},"formattedAddress":"595 Columbus Ave, New York, NY 10024, USA"},{"address1":"152 West 71st Street","latLong":{"lat":40.77711,"lng":-73.981217},"formattedAddress":"152 W 71st St, New York, NY 10023, USA"},{"address1":"213 West 82nd Street","latLong":{"lat":40.7856431,"lng":-73.97763690000001},"formattedAddress":"213 W 82nd St, New York, NY 10024, USA"},{"address1":"152 West 71st Street","latLong":{"lat":40.77711,"lng":-73.981217},"formattedAddress":"152 W 71st St, New York, NY 10023, USA"},{"address1":"152 west 71st street","latLong":{"lat":40.77711,"lng":-73.981217},"formattedAddress":"152 W 71st St, New York, NY 10023, USA"},{"address1":"207 West 96th Street","latLong":{"lat":40.7944661,"lng":-73.97063899999999},"formattedAddress":"207 W 96th St, New York, NY 10025, USA"}]