[{"address1":"20 Cardinal Hayes Place Rectory Basement","latLong":{"lat":40.7133468,"lng":-74.0025814},"formattedAddress":"20 Cardinal Hayes Pl, New York, NY 10007, USA"},{"address1":"20 Cardinal Hayes Place","latLong":{"lat":40.7133628,"lng":-74.0026069},"formattedAddress":"St. Andrew's Church, 20 Cardinal Hayes Pl, New York, NY 10007, USA"},{"address1":"29 Mott Street Basement","latLong":{"lat":40.7148116,"lng":-73.99911709999999},"formattedAddress":"29 Mott St, New York, NY 10013, USA"},{"address1":"49 Fulton Street 1st Floor Library","latLong":{"lat":40.708139,"lng":-74.003957},"formattedAddress":"49 Fulton St, New York, NY 10038, USA"},{"address1":"44 John Street","latLong":{"lat":40.7091344,"lng":-74.00810179999999},"formattedAddress":"44 John St, New York, NY 10038, USA"},{"address1":"49 Fulton Street","latLong":{"lat":40.7081354,"lng":-74.00394519999999},"formattedAddress":"49 Fulton St, New York, NY 10038, USA"},{"address1":"20 Cardinal Hayes Place","latLong":{"lat":40.7133628,"lng":-74.0026069},"formattedAddress":"St. Andrew's Church, 20 Cardinal Hayes Pl, New York, NY 10007, USA"},{"address1":"22 Barclay Street","latLong":{"lat":40.7123651,"lng":-74.009564},"formattedAddress":"22 Barclay St, New York, NY 10007, USA"},{"address1":"20 Cardinal Hayes Place","latLong":{"lat":40.7133628,"lng":-74.0026069},"formattedAddress":"St. Andrew's Church, 20 Cardinal Hayes Pl, New York, NY 10007, USA"},{"address1":"22 Barclay Street (Basement)","latLong":{"lat":40.7123651,"lng":-74.009564},"formattedAddress":"22 Barclay St, New York, NY 10007, USA"},{"address1":"283 West Broadway","latLong":{"lat":40.7208017,"lng":-74.0048389},"formattedAddress":"283 W Broadway, New York, NY 10013, USA"},{"address1":"125 Barclay Street","latLong":{"lat":40.7145883,"lng":-74.012958},"formattedAddress":"125 Barclay St, New York, NY 10007, USA"},{"address1":"49 Fulton Street","latLong":{"lat":40.7081354,"lng":-74.00394519999999},"formattedAddress":"49 Fulton St, New York, NY 10038, USA"},{"address1":"283 West Broadway","latLong":{"lat":40.7208017,"lng":-74.0048389},"formattedAddress":"283 W Broadway, New York, NY 10013, USA"},{"address1":"49 Fulton Street Conference Room #1","latLong":{"lat":40.7104778,"lng":-74.01059479999999},"formattedAddress":"22 Cortlandt St, New York, NY 10007, USA"},{"address1":"49 Fulton Street","latLong":{"lat":40.7081354,"lng":-74.00394519999999},"formattedAddress":"49 Fulton St, New York, NY 10038, USA"},{"address1":"20 Cardinal Hayes Place","latLong":{"lat":40.7133628,"lng":-74.0026069},"formattedAddress":"St. Andrew's Church, 20 Cardinal Hayes Pl, New York, NY 10007, USA"},{"address1":"20 Cardinal Hayes Place 10007","latLong":{"lat":40.7133628,"lng":-74.0026069},"formattedAddress":"St. Andrew's Church, 20 Cardinal Hayes Pl, New York, NY 10007, USA"},{"address1":"22 Barclay Street- basement chapel","latLong":{"lat":40.712362,"lng":-74.009564},"formattedAddress":"22 Barclay St, New York, NY 10007, USA"},{"address1":"283 West Broadway","latLong":{"lat":40.7208017,"lng":-74.0048389},"formattedAddress":"283 W Broadway, New York, NY 10013, USA"}]